[
    {
        "id": "t1",
        "name": "MPET Deurganckdok",
        "portId": "p-antwerp",
        "latitude": 51.285,
        "longitude": 4.265,
        "cargoTypes": [
            "Container"
        ],
        "capacity": "High",
        "ispsRiskLevel": "High"
    },
    {
        "id": "t2",
        "name": "PSA Antwerp Noordzee Terminal",
        "portId": "p-antwerp",
        "latitude": 51.305,
        "longitude": 4.275,
        "cargoTypes": [
            "Container"
        ],
        "capacity": "Medium",
        "ispsRiskLevel": "Medium"
    },
    {
        "id": "t3",
        "name": "APMT Maasvlakte II",
        "portId": "p-rotterdam",
        "latitude": 51.955,
        "longitude": 4.020,
        "cargoTypes": [
            "Container"
        ],
        "capacity": "High",
        "ispsRiskLevel": "High"
    },
    {
        "id": "t4",
        "name": "ECT Delta Terminal",
        "portId": "p-rotterdam",
        "latitude": 51.945,
        "longitude": 4.045,
        "cargoTypes": [
            "Container"
        ],
        "capacity": "High",
        "ispsRiskLevel": "High"
    },
    {
        "id": "t5",
        "name": "Europort Bulk Terminal",
        "portId": "p-rotterdam",
        "latitude": 51.930,
        "longitude": 4.100,
        "cargoTypes": [
            "Dry Bulk",
            "Break Bulk"
        ],
        "capacity": "Medium",
        "ispsRiskLevel": "Medium"
    },
    {
        "id": "t6",
        "name": "Zeebrugge RoRo & Automotive Terminal",
        "portId": "p-zeebrugge",
        "latitude": 51.345,
        "longitude": 3.205,
        "cargoTypes": [
            "RoRo",
            "Multipurpose"
        ],
        "capacity": "Medium",
        "ispsRiskLevel": "Medium"
    },
    {
        "id": "t-bow-vlissingen",
        "name": "BOW Terminal Vlissingen",
        "portId": "p-vlissingen",
        "latitude": 51.465,
        "longitude": 3.610,
        "cargoTypes": [
            "Break Bulk",
            "Multipurpose"
        ],
        "capacity": "Medium",
        "ispsRiskLevel": "Medium"
    },
    {
        "id": "t-kloosterboer-vlissingen",
        "name": "Lineage (Kloosterboer) Vlissingen",
        "portId": "p-vlissingen",
        "latitude": 51.460,
        "longitude": 3.620,
        "cargoTypes": [
            "Multipurpose"
        ],
        "capacity": "Medium",
        "ispsRiskLevel": "Low"
    },
    {
        "id": "t-verbrugge-terneuzen",
        "name": "Verbrugge Terneuzen Terminals",
        "portId": "p-terneuzen",
        "latitude": 51.335,
        "longitude": 3.825,
        "cargoTypes": [
            "Break Bulk",
            "RoRo",
            "Dry Bulk"
        ],
        "capacity": "High",
        "ispsRiskLevel": "Medium"
    },
    {
        "id": "t-yara-sluiskil",
        "name": "Yara Sluiskil",
        "portId": "p-terneuzen",
        "latitude": 51.270,
        "longitude": 3.840,
        "cargoTypes": [
            "Liquid Bulk",
            "Dry Bulk"
        ],
        "capacity": "High",
        "ispsRiskLevel": "High"
    },
    {
        "id": "t-arcelormittal-ghent",
        "name": "ArcelorMittal Gent",
        "portId": "p-ghent",
        "latitude": 51.180,
        "longitude": 3.780,
        "cargoTypes": [
            "Dry Bulk",
            "Break Bulk"
        ],
        "capacity": "High",
        "ispsRiskLevel": "Medium"
    },
    {
        "id": "t-euroports-ghent",
        "name": "Euroports Ghent",
        "portId": "p-ghent",
        "latitude": 51.150,
        "longitude": 3.760,
        "cargoTypes": [
            "Dry Bulk",
            "Multipurpose"
        ],
        "capacity": "Medium",
        "ispsRiskLevel": "Medium"
    },
    {
        "id": "t-dfds-ghent",
        "name": "DFDS Seaways Ghent",
        "portId": "p-ghent",
        "latitude": 51.140,
        "longitude": 3.750,
        "cargoTypes": [
            "RoRo"
        ],
        "capacity": "High",
        "ispsRiskLevel": "Medium"
    },
    {
        "id": "t7",
        "name": "APMT Algeciras",
        "portId": "p-algeciras",
        "latitude": 36.125,
        "longitude": -5.440,
        "cargoTypes": [
            "Container",
            "RoRo"
        ],
        "capacity": "High",
        "ispsRiskLevel": "High"
    },
    {
        "id": "t8",
        "name": "Valencia TCV",
        "portId": "p-valencia",
        "latitude": 39.445,
        "longitude": -0.320,
        "cargoTypes": [
            "Container"
        ],
        "capacity": "High",
        "ispsRiskLevel": "Medium"
    },
    {
        "id": "t9",
        "name": "Barcelona BEST",
        "portId": "p-barcelona",
        "latitude": 41.330,
        "longitude": 2.155,
        "cargoTypes": [
            "Container"
        ],
        "capacity": "High",
        "ispsRiskLevel": "Medium"
    },
    {
        "id": "t10",
        "name": "PSA Genova Pra",
        "portId": "p-genoa",
        "latitude": 44.425,
        "longitude": 8.785,
        "cargoTypes": [
            "Container"
        ],
        "capacity": "High",
        "ispsRiskLevel": "Medium"
    },
    {
        "id": "t11",
        "name": "La Spezia Container Terminal",
        "portId": "p-laspezia",
        "latitude": 44.105,
        "longitude": 9.840,
        "cargoTypes": [
            "Container"
        ],
        "capacity": "Medium",
        "ispsRiskLevel": "Medium"
    },
    {
        "id": "t12",
        "name": "Livorno Darsena Toscana",
        "portId": "p-livorno",
        "latitude": 43.565,
        "longitude": 10.300,
        "cargoTypes": [
            "Multipurpose"
        ],
        "capacity": "Medium",
        "ispsRiskLevel": "Low"
    },
    {
        "id": "t13",
        "name": "Terminal XXI Sines",
        "portId": "p-sines",
        "latitude": 37.950,
        "longitude": -8.880,
        "cargoTypes": [
            "Container"
        ],
        "capacity": "Medium",
        "ispsRiskLevel": "Low"
    },
    {
        "id": "t14",
        "name": "Lisbon Multi-Terminal",
        "portId": "p-lisbon",
        "latitude": 38.695,
        "longitude": -9.160,
        "cargoTypes": [
            "Multipurpose"
        ],
        "capacity": "Low",
        "ispsRiskLevel": "Low"
    },
    {
        "id": "t15",
        "name": "Setúbal RoRo/Bulk Terminal",
        "portId": "p-setubal",
        "latitude": 38.515,
        "longitude": -8.865,
        "cargoTypes": [
            "RoRo",
            "Dry Bulk"
        ],
        "capacity": "Medium",
        "ispsRiskLevel": "Low"
    },
    {
        "id": "t16",
        "name": "Port 2000 Container Terminal",
        "portId": "p-lehavre",
        "latitude": 49.465,
        "longitude": 0.165,
        "cargoTypes": [
            "Container"
        ],
        "capacity": "High",
        "ispsRiskLevel": "Medium"
    },
    {
        "id": "t17",
        "name": "Rouen Grain Terminal",
        "portId": "p-rouen",
        "latitude": 49.440,
        "longitude": 1.050,
        "cargoTypes": [
            "Dry Bulk"
        ],
        "capacity": "Medium",
        "ispsRiskLevel": "Low"
    },
    {
        "id": "t18",
        "name": "Gennevilliers Inland Terminal",
        "portId": "p-paris",
        "latitude": 48.940,
        "longitude": 2.290,
        "cargoTypes": [
            "Multipurpose"
        ],
        "capacity": "Low",
        "ispsRiskLevel": "Low"
    },
    {
        "id": "t19",
        "name": "HHLA Burchardkai",
        "portId": "p-hamburg",
        "latitude": 53.535,
        "longitude": 9.930,
        "cargoTypes": [
            "Container"
        ],
        "capacity": "High",
        "ispsRiskLevel": "Medium"
    },
    {
        "id": "t20",
        "name": "Eurogate Hamburg",
        "portId": "p-hamburg",
        "latitude": 53.520,
        "longitude": 9.905,
        "cargoTypes": [
            "Container"
        ],
        "capacity": "High",
        "ispsRiskLevel": "Medium"
    },
    {
        "id": "t21",
        "name": "JadeWeserPort",
        "portId": "p-wilhelmshaven",
        "latitude": 53.595,
        "longitude": 8.145,
        "cargoTypes": [
            "Container"
        ],
        "capacity": "Medium",
        "ispsRiskLevel": "Medium"
    },
    {
        "id": "t22",
        "name": "Bremerhaven RoRo Terminal",
        "portId": "p-bremerhaven",
        "latitude": 53.575,
        "longitude": 8.560,
        "cargoTypes": [
            "RoRo"
        ],
        "capacity": "High",
        "ispsRiskLevel": "Medium"
    },
    {
        "id": "t23",
        "name": "Piraeus Container Terminal",
        "portId": "p-piraeus",
        "latitude": 37.955,
        "longitude": 23.600,
        "cargoTypes": [
            "Container"
        ],
        "capacity": "High",
        "ispsRiskLevel": "High"
    },
    {
        "id": "t24",
        "name": "Thessaloniki Port Terminal",
        "portId": "p-thessaloniki",
        "latitude": 40.635,
        "longitude": 22.925,
        "cargoTypes": [
            "Multipurpose"
        ],
        "capacity": "Medium",
        "ispsRiskLevel": "Medium"
    },
    {
        "id": "t25",
        "name": "Heraklion Ferry Terminal",
        "portId": "p-heraklion",
        "latitude": 35.340,
        "longitude": 25.145,
        "cargoTypes": [
            "Passenger/Ferry",
            "RoRo"
        ],
        "capacity": "Medium",
        "ispsRiskLevel": "Low"
    },
    {
        "id": "t26",
        "name": "DCT Gdansk",
        "portId": "p-gdansk",
        "latitude": 54.385,
        "longitude": 18.720,
        "cargoTypes": [
            "Container"
        ],
        "capacity": "High",
        "ispsRiskLevel": "Medium"
    },
    {
        "id": "t27",
        "name": "Port of Klaipeda Bulk Terminal",
        "portId": "p-klaipeda",
        "latitude": 55.695,
        "longitude": 21.140,
        "cargoTypes": [
            "Dry Bulk",
            "Liquid Bulk"
        ],
        "capacity": "Medium",
        "ispsRiskLevel": "Medium"
    },
    {
        "id": "t28",
        "name": "Riga Freeport Multi-Terminal",
        "portId": "p-riga",
        "latitude": 56.995,
        "longitude": 24.085,
        "cargoTypes": [
            "Multipurpose"
        ],
        "capacity": "Medium",
        "ispsRiskLevel": "Medium"
    },
    {
        "id": "t29",
        "name": "Tallinn Muuga Harbour",
        "portId": "p-tallinn",
        "latitude": 59.495,
        "longitude": 24.960,
        "cargoTypes": [
            "Container",
            "Liquid Bulk"
        ],
        "capacity": "Medium",
        "ispsRiskLevel": "Medium"
    },
    {
        "id": "t30",
        "name": "Constanta Container Terminal",
        "portId": "p-constanta",
        "latitude": 44.115,
        "longitude": 28.660,
        "cargoTypes": [
            "Container"
        ],
        "capacity": "High",
        "ispsRiskLevel": "High"
    },
    {
        "id": "t31",
        "name": "Varna/Burgas Bulk Terminal",
        "portId": "p-varna",
        "latitude": 43.190,
        "longitude": 27.915,
        "cargoTypes": [
            "Dry Bulk"
        ],
        "capacity": "Medium",
        "ispsRiskLevel": "Medium"
    },
    {
        "id": "uk-felixstowe-hutchison",
        "name": "Port of Felixstowe Container Terminals",
        "portId": "p-felixstowe",
        "latitude": 51.9606,
        "longitude": 1.3511,
        "cargoTypes": [
            "Container"
        ],
        "capacity": "Very High",
        "ispsRiskLevel": "High",
        "notes": "Largest UK container port; strong customs and Border Force presence. TOS: Navis N4, ACS: Local / Legacy ACS, Identity: Local Port Pass"
    },
    {
        "id": "uk-london-gateway-dpworld",
        "name": "London Gateway Container Terminal",
        "portId": "p-london-gateway",
        "latitude": 51.5079,
        "longitude": 0.5086,
        "cargoTypes": [
            "Container"
        ],
        "capacity": "High",
        "ispsRiskLevel": "High",
        "notes": "Highly automated DP World terminal; strong landlord control. TOS: Navis N4, ACS: DP World Integrated ACS, Identity: Local"
    },
    {
        "id": "uk-tilbury-forthports",
        "name": "Port of Tilbury Terminals",
        "portId": "p-tilbury",
        "latitude": 51.4626,
        "longitude": 0.3587,
        "cargoTypes": [
            "Container",
            "RoRo",
            "Multipurpose"
        ],
        "capacity": "Medium",
        "ispsRiskLevel": "Medium",
        "notes": "Diversified port with mixed cargo and lower automation. TOS: Mixed / Legacy, ACS: Legacy ACS, Identity: Local"
    },
    {
        "id": "uk-immingham-abp",
        "name": "Port of Immingham",
        "portId": "p-immingham",
        "latitude": 53.6281,
        "longitude": -0.1877,
        "cargoTypes": [
            "RoRo",
            "Dry Bulk",
            "Liquid Bulk"
        ],
        "capacity": "Very High",
        "ispsRiskLevel": "High",
        "notes": "UK's largest port by tonnage; critical energy and bulk hub. TOS: Navis / Custom, ACS: ABP Standard ACS, Identity: Local"
    },
    {
        "id": "uk-hull-abp",
        "name": "Port of Hull",
        "portId": "p-hull",
        "latitude": 53.7390,
        "longitude": -0.2962,
        "cargoTypes": [
            "RoRo",
            "Dry Bulk"
        ],
        "capacity": "Medium",
        "ispsRiskLevel": "Medium",
        "notes": "Strong RoRo and offshore wind logistics footprint. TOS: Legacy / Mixed, ACS: ABP Standard ACS, Identity: Local"
    },
    {
        "id": "uk-southampton-abp",
        "name": "Port of Southampton",
        "portId": "p-southampton",
        "latitude": 50.9049,
        "longitude": -1.4044,
        "cargoTypes": [
            "Container",
            "RoRo",
            "Passenger/Ferry"
        ],
        "capacity": "High",
        "ispsRiskLevel": "High",
        "notes": "Major automotive, container, and cruise hub. TOS: Navis N4, ACS: Legacy + Border Force Controls, Identity: Local"
    },
    {
        "id": "uk-portsmouth-ropax",
        "name": "Portsmouth International Port",
        "portId": "p-portsmouth",
        "latitude": 50.8167,
        "longitude": -1.1030,
        "cargoTypes": [
            "RoRo",
            "Passenger/Ferry"
        ],
        "capacity": "Medium",
        "ispsRiskLevel": "High",
        "notes": "High passenger and ferry throughput; strong border control relevance. TOS: RoRo-specific, ACS: Legacy ACS, Identity: Local"
    },
    {
        "id": "uk-liverpool-peel",
        "name": "Port of Liverpool",
        "portId": "p-liverpool",
        "latitude": 53.4046,
        "longitude": -3.0160,
        "cargoTypes": [
            "Container",
            "RoRo"
        ],
        "capacity": "Medium",
        "ispsRiskLevel": "Medium",
        "notes": "Key RoRo and Irish Sea trade corridor. TOS: Navis, ACS: Peel Ports ACS, Identity: Local"
    },
    {
        "id": "se-gothenburg-apmt",
        "name": "APMT Gothenburg",
        "portId": "p-gothenburg",
        "latitude": 57.7065,
        "longitude": 11.9361,
        "cargoTypes": [
            "Container",
            "RoRo"
        ],
        "capacity": "High",
        "ispsRiskLevel": "Medium",
        "notes": "Largest Nordic port; key Baltic–North Sea connector. TOS: Navis N4, ACS: Port of Gothenburg ACS, Identity: Local"
    },
    {
        "id": "dk-aarhus-container",
        "name": "Aarhus Container Terminal",
        "portId": "p-aarhus",
        "latitude": 56.1629,
        "longitude": 10.2290,
        "cargoTypes": [
            "Container"
        ],
        "capacity": "High",
        "ispsRiskLevel": "Medium",
        "notes": "Denmark's main container hub. TOS: Navis N4, ACS: Port Standard ACS, Identity: Local"
    },
    {
        "id": "dk-se-cmp",
        "name": "Copenhagen Malmö Port",
        "portId": "p-copenhagen-malmo",
        "latitude": 55.6129,
        "longitude": 12.9943,
        "cargoTypes": [
            "RoRo",
            "Multipurpose",
            "Passenger/Ferry"
        ],
        "capacity": "Medium",
        "ispsRiskLevel": "Medium",
        "notes": "Strategic Öresund hub; strong public ownership. TOS: Mixed, ACS: CMP ACS, Identity: Local"
    },
    {
        "id": "fi-helsinki-port",
        "name": "Port of Helsinki Terminals",
        "portId": "p-helsinki",
        "latitude": 60.1719,
        "longitude": 24.9414,
        "cargoTypes": [
            "Container",
            "RoRo",
            "Passenger/Ferry"
        ],
        "capacity": "High",
        "ispsRiskLevel": "High",
        "notes": "High ferry and RoRo identity volumes; strategic eastern border hub. TOS: Navis, ACS: Port of Helsinki ACS, Identity: Local"
    },
    {
        "id": "fi-kotka-hamina",
        "name": "Port of HaminaKotka",
        "portId": "p-hamina-kotka",
        "latitude": 60.4667,
        "longitude": 26.9167,
        "cargoTypes": [
            "Container",
            "Dry Bulk"
        ],
        "capacity": "Medium",
        "ispsRiskLevel": "Medium",
        "notes": "Key container and forest products hub. TOS: Navis, ACS: Port Standard ACS, Identity: Local"
    },
    {
        "id": "no-oslo-port",
        "name": "Port of Oslo",
        "portId": "p-oslo",
        "latitude": 59.9073,
        "longitude": 10.7461,
        "cargoTypes": [
            "Container",
            "RoRo"
        ],
        "capacity": "Medium",
        "ispsRiskLevel": "Medium",
        "notes": "Main Norwegian container gateway. TOS: Navis, ACS: Port of Oslo ACS, Identity: Local"
    },
    {
        "id": "no-stavanger-energy",
        "name": "Port of Stavanger",
        "portId": "p-stavanger",
        "latitude": 58.9690,
        "longitude": 5.7331,
        "cargoTypes": [
            "Liquid Bulk",
            "Multipurpose"
        ],
        "capacity": "Medium",
        "ispsRiskLevel": "High",
        "notes": "Offshore oil & gas logistics hub; high contractor density. TOS: Custom, ACS: Port Standard ACS, Identity: Local"
    }
]